[
  {"regionID":20,"name":"Cafe", "X": 469, "Y": 516,"type":"gps","uuid":"E2C56DB5-DFFB-48D2-B060-X0F5A71096E0","major":1,"minor":11,"lat":51.509334,"lng":-0.186981,"radius":60,"eventID":19,"isQueue":true},
  {"regionID":21,"name":"Toilet", "X": 982, "Y": 365,"type":"gps","uuid":"E2C56DB5-DFFB-48D2-B060-X0F5A71096E1","major":1,"minor":12,"lat":51.510583,"lng":-0.180466,"radius":60,"eventID":19,"isQueue":true},
  {"regionID":22,"name":"Recreation Area", "X": 1890, "Y": 825,"type":"gps","uuid":"E2C56DB5-DFFB-48D2-B060-X0F5A71096E2","major":1,"minor":13,"lat":51.506397,"lng":-0.166483,"radius":60,"eventID":19,"isQueue":false},
  {"regionID":23,"name":"Shop", "X": 2218, "Y": 218,"type":"gps","uuid":"E2C56DB5-DFFB-48D2-B060-X0F5A71096E3","major":1,"minor":14,"lat":51.511896,"lng":-0.161062,"radius":60,"eventID":19,"isQueue":false},
  {"regionID":24,"name":"Boris Bikes", "X": 1052, "Y": 1299,"type":"gps","uuid":"E2C56DB5-DFFB-48D2-B060-X0F5A71096E4","major":1,"minor":15,"lat":51.50238,"lng":-0.173527,"radius":60,"eventID":19,"isQueue":false}
]