[{"regionID":39,"name":"Indoor Bar","type":"beacon","uuid":"E2C56DB5-DFFB-48D2-B060-D0F5A71096E0","major":1,"minor":2,"lat":53.868273,"lng":-1.384408,"radius":35,"eventID":1,"isQueue":true},{"regionID":42,"name":"Main Stage","type":"beacon","uuid":"E2C56DB5-DFFB-48D2-B060-D0F5A71096E0","major":1,"minor":9,"lat":53.866778,"lng":-1.382864,"radius":35,"eventID":1,"isQueue":false},{"regionID":50,"name":"Campsite Bar","type":"beacon","uuid":"E2C56DB5-DFFB-48D2-B060-D0F5A71096E0","major":1,"minor":3,"lat":53.866565,"lng":-1.386017,"radius":30,"eventID":1,"isQueue":true},{"regionID":41,"name":"Toilet Block","type":"beacon","uuid":"E2C56DB5-DFFB-48D2-B060-D0F5A71096E0","major":1,"minor":8,"lat":53.866485,"lng":-1.381393,"radius":30,"eventID":1,"isQueue":true},{"regionID":51,"name":"Carpark","type":"gps","lat":53.866453,"lng":-1.377201,"radius":35,"eventID":1,"isQueue":false},{"regionID":40,"name":"Food Stall","type":"beacon","uuid":"E2C56DB5-DFFB-48D2-B060-D0F5A71096E0","major":1,"minor":1,"lat":53.867225,"lng":-1.380985,"radius":12,"eventID":1,"isQueue":true}]